City,Cloudiness,Country,Date,Humidity,Lat,Lon,Max Temp,Wind Speed
Rikitea,88,PF,1553308378,100,-23.12,-134.97,78.35,18.84
New Norfolk,75,AU,1553308516,46,-42.78,147.06,73.99,11.41
Karratha,92,AU,1553308556,63,-20.74,116.85,86.72,31.59
Olinda,75,EC,1553306400,74,-2.03,-79.75,84.2,8.05
Provideniya,92,RU,1553308557,100,64.42,-173.23,15.62,13.02
Laguna,5,MX,1553305920,52,27.52,-110.01,64.4,5.82
Katsuura,75,JP,1553307819,46,33.93,134.5,50.0,11.41
Nanortalik,48,GL,1553308332,96,60.14,-45.24,31.82,29.46
Wamba,0,CD,1553308559,86,2.14,27.99,68.81,2.17
Codo,48,ID,1553308560,95,-8.13,112.72,82.13,7.99
Port Elizabeth,1,US,1553308552,52,39.31,-74.98,43.0,19.46
Sao Joao da Barra,92,BR,1553308561,97,-21.64,-41.05,79.88,14.25
Bethel,40,US,1553306160,70,60.79,-161.76,42.8,12.75
Martil,20,MA,1553306400,77,35.62,-5.28,59.0,19.46
Punta Arenas,75,CL,1553308389,87,-53.16,-70.91,50.0,12.75
Novo Aripuana,0,BR,1553308563,93,-5.12,-60.38,77.18,1.16
Lebu,20,ET,1553306400,59,8.96,38.73,62.6,6.93
Chokurdakh,0,RU,1553308563,85,70.62,147.9,-2.75,8.99
Tasiilaq,68,GL,1553305800,50,65.61,-37.64,8.6,5.82
Tuktoyaktuk,75,CA,1553306400,77,69.44,-133.03,-2.21,14.99
Kaitangata,24,NZ,1553308565,83,-46.28,169.85,64.85,8.99
Klaksvik,48,FO,1553307600,69,62.23,-6.59,35.6,40.26
Carnarvon,56,ZA,1553308566,67,-30.97,22.13,49.46,3.51
College,75,US,1553308215,48,64.86,-147.8,51.8,8.05
East London,92,ZA,1553308353,100,-33.02,27.91,73.67,20.29
Mataura,64,NZ,1553308567,48,-46.19,168.86,76.82,5.19
Port Alfred,68,ZA,1553308552,95,-33.59,26.89,64.99,12.46
Hermanus,12,ZA,1553308269,87,-34.42,19.24,64.0,11.99
Saldanha,0,PT,1553308584,81,41.42,-6.55,30.92,2.73
Ushuaia,90,AR,1553306400,93,-54.81,-68.31,46.4,5.82
Plettenberg Bay,8,ZA,1553308653,98,-34.05,23.37,66.83,10.78
Bredasdorp,24,ZA,1553308269,87,-34.53,20.04,64.0,4.7
Arraial do Cabo,75,BR,1553306400,78,-22.97,-42.02,73.4,4.7
Vaini,0,IN,1553306400,33,15.34,74.49,73.4,4.18
Kouango,0,CF,1553308654,88,4.99,19.98,73.22,8.43
Washington DC.,1,US,1553308533,44,38.9,-77.04,42.01,13.87
Sao Paulo de Olivenca,36,BR,1553308655,87,-3.38,-68.87,78.35,2.84
Dikson,64,RU,1553308656,100,73.51,80.55,1.04,19.06
Barrow,0,AR,1553308656,65,-38.31,-60.23,60.98,12.57
Luderitz,0,NA,1553308552,92,-26.65,15.16,57.11,7.87
Fontenay-le-Comte,0,FR,1553308625,81,46.47,-0.81,42.8,5.82
Vila Velha,40,BR,1553308168,88,-3.71,-38.6,81.0,5.82
Puerto Ayora,0,EC,1553308250,92,-0.74,-90.35,79.0,3.0
Salalah,40,OM,1553305800,74,17.01,54.1,78.8,9.17
Albany,90,US,1553308501,80,42.65,-73.75,37.0,25.28
Verkhoyansk,32,RU,1553308658,58,67.55,133.39,4.28,3.74
Cherskiy,0,RU,1553308659,68,68.75,161.3,7.43,2.95
Severo-Kurilsk,88,RU,1553308660,95,50.68,156.12,32.18,9.33
Faanui,56,PF,1553308617,100,-16.48,-151.75,85.1,6.98
Tual,0,ID,1553308660,96,-5.67,132.75,85.28,12.24
Busselton,0,AU,1553308518,33,-33.64,115.35,69.01,13.24
Kihei,40,US,1553308647,51,20.76,-156.45,82.4,23.04
Yellowknife,75,CA,1553308190,68,62.45,-114.38,28.4,9.17
Altamira,44,BR,1553308440,86,-3.2,-52.21,78.08,4.41
Dwarka,0,IN,1553306408,59,28.58,77.04,80.01,8.05
Hasaki,75,JP,1553308187,86,35.73,140.83,43.0,6.93
Pevek,0,RU,1553308571,76,69.7,170.27,-3.38,2.62
Ukiah,90,US,1553308536,87,39.15,-123.21,55.0,5.82
Lyngseidet,75,NO,1553305800,92,69.58,20.21,39.2,40.26
Qaanaaq,20,GL,1553308665,92,77.48,-69.36,-29.57,9.33
Elizabeth City,20,US,1553308657,56,36.3,-76.22,48.2,19.46
Bulgan,0,MN,1553308667,34,48.81,103.53,37.94,9.55
Bonavista,92,CA,1553308261,88,48.65,-53.11,34.0,8.99
Atuona,32,PF,1553308668,99,-9.8,-139.03,82.58,15.82
Mildura,48,AU,1553308363,25,-34.18,142.16,91.99,12.75
Torbay,75,CA,1553308407,86,47.66,-52.73,37.99,20.8
Sangar,68,RU,1553308669,60,63.92,127.47,6.98,13.35
Upernavik,20,GL,1553308669,100,72.79,-56.15,-13.91,6.64
Akdepe,0,TM,1553306400,87,42.05,59.39,44.6,6.93
Khatanga,12,RU,1553308671,79,71.98,102.47,-12.56,9.66
Ilulissat,0,GL,1553305800,43,69.22,-51.1,-9.41,6.93
Kamakwie,76,SL,1553308672,70,9.5,-12.24,76.73,2.95
Jamestown,100,AU,1553308672,67,-33.21,138.6,73.22,12.91
San Cristobal,40,EC,1553308331,87,-0.39,-78.55,57.2,2.24
Westport,56,IE,1553308625,76,53.8,-9.52,45.0,4.0
Sorong,32,ID,1553308673,100,-0.86,131.25,82.13,6.31
Tommot,76,RU,1553308674,63,58.97,126.27,19.13,8.21
San Patricio,0,PY,1553308578,83,-26.98,-56.83,61.25,2.73
Alice Springs,0,AU,1553306400,17,-23.7,133.88,100.4,17.22
Port Lincoln,88,AU,1553308551,81,-34.72,135.86,71.51,8.21
Hithadhoo,48,MV,1553308675,98,-0.6,73.08,86.09,5.3
Hilo,90,US,1553308653,64,19.71,-155.08,75.2,14.99
Bud,90,NO,1553308286,86,62.91,6.91,42.8,41.38
Oktyabrskiy,75,RU,1553308186,95,55.61,37.97,35.01,11.18
Avarua,100,CK,1553306400,78,-21.21,-159.78,82.4,4.7
Nikolskoye,0,RU,1553308535,79,59.7,30.79,30.99,4.47
Bereda,0,ES,1553308436,100,43.27,-7.54,45.0,3.36
Iqaluit,75,CA,1553308363,61,63.75,-68.52,-20.01,2.24
Turayf,40,SA,1553306400,62,31.68,38.65,51.8,12.75
Slave Lake,1,CA,1553306400,56,55.28,-114.77,42.8,4.41
Kavaratti,0,IN,1553308681,100,10.57,72.64,83.75,9.66
Komsomolskiy,88,RU,1553308682,82,67.55,63.78,18.59,2.95
Butaritari,88,KI,1553308682,100,3.07,172.79,77.18,2.62
Nanzhang,68,CN,1553308683,59,31.78,111.84,54.32,2.73
Nizhnyaya Salda,80,RU,1553308683,92,58.07,60.71,31.64,3.96
Asandh,8,IN,1553308683,53,29.52,76.6,67.1,11.56
Diego de Almagro,0,CL,1553308684,89,-26.39,-70.05,58.55,2.06
Ankazoabo,0,MG,1553308684,84,-22.29,44.51,69.98,6.53
Ust-Ilimsk,56,RU,1553308685,63,57.96,102.73,29.3,10.0
Mumford,56,GH,1553308685,88,5.26,-0.76,79.25,5.86
Constitucion,40,MX,1553305620,17,23.99,-104.67,66.2,19.46
Bandarbeyla,56,SO,1553308686,100,9.49,50.81,77.9,7.31
Viedma,12,AR,1553308686,61,-40.81,-62.99,58.19,6.53
Hit,88,IQ,1553308687,67,33.64,42.83,48.47,6.08
Dawson Creek,1,CA,1553306400,70,55.76,-120.23,46.4,4.97
Bluff,0,AU,1553308687,50,-23.58,149.07,90.32,8.21
Cabra,0,ES,1553308618,86,37.47,-4.43,50.0,1.12
Hobart,75,AU,1553308576,46,-42.88,147.33,73.99,11.41
San Quintin,0,PH,1553308688,49,17.54,120.52,85.28,3.74
Sitka,88,US,1553308237,95,37.17,-99.65,45.0,18.99
Vestmannaeyjar,0,IS,1553308689,92,63.44,-20.27,36.95,30.91
Ponta Delgada,75,PT,1553308553,93,37.73,-25.67,57.2,3.36
Waipawa,8,NZ,1553308098,66,-39.94,176.59,69.01,1.99
Princeton,1,US,1553308492,74,41.37,-89.46,43.0,8.43
Victoria,75,BN,1553306400,74,5.28,115.24,87.8,4.7
Flinders,64,AU,1553308631,65,-34.58,150.85,87.01,4.7
Fairbanks,75,US,1553306160,48,64.84,-147.72,51.8,8.05
Katete,8,UG,1553308693,82,-0.78,29.75,56.84,2.73
Mwense,88,ZM,1553308693,96,-10.39,28.7,65.12,2.84
Mecca,0,SA,1553308694,67,21.43,39.83,55.04,2.62
Cabo San Lucas,5,MX,1553308399,60,22.89,-109.91,70.0,5.41
Isangel,75,VU,1553302800,66,-19.55,169.27,87.8,6.93
Mar del Plata,88,AR,1553308695,70,-46.43,-67.52,60.44,14.36
Haines Junction,24,CA,1553308696,60,60.75,-137.51,40.37,2.06
Port Hedland,92,AU,1553306400,78,-20.31,118.58,82.4,24.16
Sao Filipe,44,CV,1553308697,100,14.9,-24.5,69.35,14.14
Kavieng,8,PG,1553308698,100,-2.57,150.8,82.4,7.87
Gien,0,FR,1553308685,76,47.69,2.63,39.99,2.17
Port-Gentil,76,GA,1553308698,100,-0.72,8.78,79.79,8.77
Saint George,0,GR,1553305800,81,39.45,22.34,42.8,4.7
Port Hardy,90,CA,1553306400,50,50.7,-127.42,55.4,14.99
Chuy,36,UY,1553308700,89,-33.69,-53.46,62.15,7.09
Saint-Pierre,0,FR,1553308625,80,48.95,4.24,39.2,2.24
Tiksi,12,RU,1553308589,70,71.64,128.87,12.74,4.41
Santa Fe,0,AR,1553308512,68,-31.62,-60.7,66.99,1.99
Kargat,76,RU,1553308702,96,55.19,80.28,24.53,4.07
Sao Francisco,0,BR,1553306400,88,-25.65,-53.85,71.6,2.73
Airai,8,TL,1553308703,57,-8.93,125.41,84.56,2.62
Coihaique,0,CL,1553306400,93,-45.58,-72.07,51.8,6.93
Kodiak,1,US,1553308558,19,39.95,-94.76,54.0,5.82
Saint-Philippe,90,CA,1553308554,86,45.36,-73.48,37.4,23.04
Norman Wells,90,CA,1553306400,73,65.28,-126.83,24.8,2.24
Gat,56,SN,1553306400,88,14.69,-16.54,66.2,9.17
Vila Franca do Campo,75,PT,1553308674,93,37.72,-25.43,57.2,3.36
Misratah,48,LY,1553308708,100,32.38,15.09,56.57,11.79
Langham,5,CA,1553306400,70,52.36,-106.96,46.4,4.7
Castro,90,CL,1553306400,100,-42.48,-73.76,53.6,10.29
Georgetown,0,GY,1553306400,88,6.8,-58.16,78.8,4.7
Jackson,1,US,1553308505,70,35.61,-88.82,55.0,5.08
Point Fortin,40,TT,1553308507,88,10.16,-61.68,79.0,5.82
Carauari,56,BR,1553308712,90,-4.88,-66.9,77.18,2.73
Majene,24,ID,1553308712,91,-3.54,118.97,85.01,3.74
Hoi An,75,VN,1553306400,83,15.88,108.33,80.6,3.36
Ahipara,68,NZ,1553308640,73,-35.17,173.16,73.04,5.08
Preobrazheniye,80,RU,1553308713,50,42.9,133.91,29.48,5.64
Fort Nelson,40,CA,1553306400,34,58.81,-122.69,53.6,3.36
Evensk,8,RU,1553308714,100,61.92,159.24,25.88,13.69
Manokwari,36,ID,1553308432,100,-0.87,134.08,80.78,6.64
Anadyr,24,RU,1553308389,76,64.73,177.51,-7.01,24.61
Longyearbyen,75,NO,1553305800,79,78.22,15.63,23.0,4.7
Gravdal,92,NO,1553308539,65,59.79,5.78,44.6,27.51
Rudsar,40,IR,1553306400,93,37.14,50.29,48.2,2.73
Hirtshals,92,DK,1553308717,90,57.59,9.96,45.14,20.85
Butler,1,US,1553308614,74,41.43,-84.87,35.6,10.29
Cape Town,0,ZA,1553308369,82,-33.93,18.42,69.01,11.41
Saint-Francois,0,FR,1553308212,72,46.42,3.91,33.8,2.24
Ponta do Sol,92,BR,1553308719,94,-20.63,-46.0,64.58,10.45
Santo Anastacio,0,BR,1553306400,73,-21.84,-51.61,71.6,10.29
Vao,48,EE,1553308577,83,59.1,26.19,25.61,8.32
Nioki,76,CD,1553308720,95,-2.72,17.69,75.02,3.74
Ilabaya,0,PE,1553308721,80,-17.42,-70.51,53.6,1.39
Narsaq,44,GL,1553305800,79,60.91,-46.05,28.4,3.36
Balsas,92,BR,1553308484,95,-7.53,-46.04,72.5,3.18
Muroto,75,JP,1553306400,32,33.37,134.14,53.6,6.93
Shirokiy,92,RU,1553308615,100,53.87,39.17,33.01,1.99
Ambon,0,FR,1553308707,87,47.55,-2.56,45.0,9.17
Sal Rei,40,CV,1553306400,64,16.18,-22.92,69.8,9.17
Pisco,0,PE,1553306400,83,-13.71,-76.2,69.8,14.99
Saint-Joseph,0,FR,1553308683,30,43.56,6.97,59.0,5.82
Bloomingdale,1,US,1553308528,73,41.96,-88.08,34.0,3.36
Bambous Virieux,75,MU,1553308440,88,-20.34,57.76,80.6,5.82
Faya,0,SA,1553306400,51,18.39,42.45,60.8,6.93
San Borja,76,BO,1553308727,84,-14.86,-66.75,71.6,2.17
Thompson,40,CA,1553306400,55,55.74,-97.86,39.2,4.7
Javanrud,20,IR,1553306400,74,34.8,46.49,33.8,2.39
Palizada,5,MX,1553305380,78,18.25,-92.09,77.0,16.11
Hami,0,CN,1553308574,53,42.84,93.51,43.7,5.19
Luganville,20,VU,1553308729,100,-15.51,167.18,82.58,7.54
Ternate,20,PH,1553308238,48,14.29,120.72,89.01,6.93
Ortakoy,0,TR,1553307600,79,38.74,34.04,27.0,2.73
Mahebourg,75,MU,1553308440,88,-20.41,57.7,80.6,5.82
Lubartow,0,PL,1553308640,75,51.46,22.61,32.0,2.24
Killam,0,CA,1553308731,74,52.79,-111.86,27.05,3.06
Kruisfontein,32,ZA,1553308731,86,-34.0,24.73,64.85,8.43
Bara,88,NG,1553308731,47,10.41,10.6,78.98,5.86
Vanimo,48,PG,1553308732,99,-2.67,141.3,83.03,11.56
Rafaela,0,AR,1553308562,57,-31.25,-61.49,63.0,1.01
Hamilton,75,BM,1553308362,82,32.3,-64.78,66.2,17.22
Havelock,75,US,1553308680,47,34.88,-76.9,57.2,14.99
Tomatlan,0,MX,1553308725,82,19.93,-105.25,68.27,2.95
Cururupu,100,BR,1553308627,92,-1.82,-44.87,77.63,3.96
Gohand,0,IN,1553308733,31,25.7,79.54,71.78,7.99
Chifeng,0,CN,1553308733,82,42.27,118.96,27.5,9.89
Novopokrovka,68,RU,1553308734,48,45.85,134.51,26.87,3.4
Road Town,1,VG,1553308404,74,18.42,-64.62,78.8,6.93
Lata,20,IN,1553308735,55,30.78,78.62,45.05,2.17
Popondetta,56,PG,1553308736,83,-8.77,148.24,78.17,2.51
Klyuchi,0,RU,1553308736,84,52.25,79.17,28.67,3.74
Lieksa,76,FI,1553308737,74,63.32,30.02,24.71,8.43
Leningradskiy,0,RU,1553308737,86,69.38,178.42,-9.77,5.41
Nouakchott,0,MR,1553306400,88,18.08,-15.98,64.4,9.17
Warmbad,0,DE,1553308724,93,50.67,13.08,48.0,5.82
Half Moon Bay,90,US,1553308558,93,37.46,-122.43,57.2,16.11
Sandi,0,IN,1553308738,34,27.29,79.95,72.05,11.01
Dingle,12,PH,1553308739,54,11.0,122.67,86.72,10.45
Baykit,76,RU,1553308739,80,61.68,96.39,25.07,10.67
San Luis,0,AR,1553308740,56,-33.3,-66.34,61.25,9.66
Adrar,0,DZ,1553306400,41,27.87,-0.29,57.2,6.93
Samarai,44,PG,1553308587,100,-10.62,150.67,82.67,9.44
Monrovia,40,LR,1553302800,94,6.33,-10.8,77.0,3.36
Beringovskiy,76,RU,1553308742,90,63.05,179.32,7.43,29.01
Yulara,0,AU,1553306400,14,-25.24,130.99,100.4,12.75
Doha,0,QA,1553306400,78,25.29,51.53,71.6,12.75
Porto Novo,75,BR,1553306400,100,-23.68,-45.44,64.4,3.36
Mananjary,0,MG,1553308743,96,-19.16,46.8,60.44,2.95
Tuatapere,48,NZ,1553308632,70,-46.13,167.69,67.28,4.52
Berlevag,68,NO,1553308744,100,70.86,29.09,31.37,21.74
Port Macquarie,0,AU,1553308204,54,-31.43,152.91,91.99,5.82
Mudgee,24,AU,1553308257,57,-32.6,149.59,86.0,5.82
Mastung,76,PK,1553308745,94,29.8,66.85,49.64,3.18
Katangli,44,RU,1553308745,98,51.71,143.23,18.23,15.7
Pinawa,0,CA,1553308746,78,50.15,-95.88,25.52,10.78
Litovko,68,RU,1553308746,63,49.24,135.18,20.57,3.18
Batticaloa,44,LK,1553308747,92,7.71,81.69,83.39,0.49
Sorland,92,NO,1553308592,100,67.67,12.69,38.03,33.38
Te Anau,24,NZ,1553308747,48,-45.41,167.72,71.51,3.62
Ketchikan,90,US,1553306160,76,55.34,-131.65,50.0,9.17
Atambua,0,ID,1553308748,90,-9.11,124.89,84.83,11.68
Aykhal,56,RU,1553308748,65,65.95,111.51,1.49,12.8
Liuli,64,TZ,1553308748,100,-11.1,34.65,75.56,3.18
Tilichiki,0,RU,1553308749,86,60.47,166.1,14.63,4.07
Souillac,0,FR,1553308569,61,45.6,-0.6,48.2,2.24
Micheweni,92,TZ,1553308749,100,-4.97,39.83,81.32,6.76
Ribeira Grande,92,PT,1553308749,99,38.52,-28.7,60.8,12.68
Kapaa,40,US,1553308702,65,22.08,-159.32,80.6,20.8
Noumea,0,NC,1553306400,58,-22.28,166.46,87.8,9.17
Mikhaylovka,32,RU,1553308751,55,52.96,103.29,36.32,5.53
Shingu,40,JP,1553306400,37,33.72,135.99,51.8,11.41
Dunedin,48,NZ,1553308528,76,-45.87,170.5,64.0,11.99
Taltal,0,CL,1553308752,97,-25.41,-70.49,57.29,1.05
Comodoro Rivadavia,90,AR,1553306400,87,-45.87,-67.48,59.0,1.12
Ust-Maya,0,RU,1553308753,51,60.42,134.54,7.52,3.74
Muisne,48,EC,1553308753,90,0.61,-80.02,72.05,2.73
Junin,0,PE,1553306400,71,-16.45,-71.58,53.6,5.82
Tura,36,IN,1553308755,81,25.52,90.21,69.08,4.29
Wakkanai,75,JP,1553306400,63,45.41,141.67,26.6,12.75
Arman,88,RU,1553308721,77,59.7,150.17,23.9,11.9
Seoul,75,KR,1553307600,48,37.57,126.98,46.4,6.93
Ziezmariai,0,LT,1553308660,86,54.8,24.45,30.2,2.95
Paita,12,PE,1553308757,73,-5.09,-81.11,74.93,4.97
Merauke,12,ID,1553308757,91,-8.49,140.4,86.09,9.78
Kothapet,40,IN,1553308235,78,17.37,78.55,82.0,3.36
Kanye,0,BW,1553308758,71,-24.98,25.34,61.43,15.14
Umm Lajj,24,SA,1553308758,100,25.02,37.27,60.08,5.3
Morgan City,1,US,1553308651,93,29.7,-91.21,61.0,3.36
Saint Anthony,90,US,1553308414,80,43.97,-111.68,41.0,6.93
Vorozhba,76,UA,1553308759,84,51.17,34.23,31.1,17.49
Vuktyl,88,RU,1553308760,92,63.86,57.31,28.58,3.4
Hualmay,0,PE,1553308761,91,-11.1,-77.61,67.28,4.29
Kwinana,0,AU,1553308756,46,-32.25,115.77,75.0,17.22
Tazovskiy,80,RU,1553308762,92,67.47,78.7,21.92,9.55
Leo,48,BF,1553308762,55,11.1,-2.1,78.17,2.62
Zyryanskoye,80,RU,1553308762,95,56.83,86.62,26.6,4.52
Kutulik,12,RU,1553308763,76,53.35,102.79,33.89,8.1
Visnes,76,NO,1553308504,65,59.36,5.22,44.6,27.51
Darhan,0,MN,1553308764,37,49.49,105.92,40.55,10.22
Grand Gaube,75,MU,1553308741,88,-20.01,57.66,80.6,5.82
Puerto Carreno,40,CO,1553302800,74,6.19,-67.49,82.4,2.28
Jaisalmer,20,IN,1553308546,33,26.91,70.91,72.68,7.99
Mayo,40,CA,1553306400,30,63.59,-135.9,57.2,8.05
Pyay,0,MM,1553308716,47,18.82,95.22,87.8,4.18
Charters Towers,88,AU,1553308767,82,-20.07,146.27,79.79,11.68
Yurga,92,RU,1553308767,94,55.71,84.93,24.08,6.2
Kenai,90,US,1553308624,82,60.55,-151.26,46.4,10.29
Bone,40,ID,1553306400,66,-10.32,123.57,89.6,10.29
Sarangani,20,PH,1553308769,94,5.4,125.46,82.04,8.99
Taunggyi,0,MM,1553308769,36,20.78,97.03,79.52,3.4
Sheridan,90,US,1553308747,86,39.65,-105.03,43.0,11.41
Newport,90,GB,1553308519,93,51.59,-3.0,50.0,8.05
Luwuk,44,ID,1553308771,81,-0.95,122.79,85.55,2.62
Husavik,0,CA,1553308552,72,50.56,-96.99,33.01,7.0
Fengrun,0,CN,1553308616,37,39.83,118.12,46.58,11.23
Kaeo,92,NZ,1553308773,63,-35.1,173.78,72.59,6.08
Mansfield,1,US,1553308769,52,32.56,-97.14,70.0,4.7
Kodinsk,0,RU,1553308774,65,58.6,99.18,30.83,6.87
Udachnyy,44,RU,1553308774,56,66.42,112.4,1.58,7.99
Sioux Lookout,20,CA,1553306400,58,50.1,-91.92,32.0,3.36
Parabel,80,RU,1553308775,87,58.71,81.5,26.42,2.62
Bukachacha,20,RU,1553308776,43,52.99,116.91,24.35,4.63
Nyurba,68,RU,1553308776,82,63.29,118.35,23.9,3.74
Baglung,0,NP,1553308777,42,28.27,83.59,55.4,2.39
Touros,40,BR,1553306400,94,-5.2,-35.46,78.8,5.82
Palora,44,EC,1553308778,100,-1.7,-77.97,61.43,1.72
Saskylakh,36,RU,1553308566,85,71.97,114.09,-2.93,17.05
Dunmore East,92,IE,1553308670,87,52.15,-6.99,43.0,5.86
Jonesboro,1,US,1553308545,62,35.84,-90.7,55.99,3.85
Hammelburg,0,DE,1553308763,95,50.12,9.9,42.01,2.62
Corrales,88,CO,1553308780,93,5.83,-72.84,51.98,1.83
Vanavara,76,RU,1553308780,66,60.35,102.28,26.78,12.35
Rio Grande,64,BR,1553308781,100,-32.03,-52.1,63.59,7.87
Ancud,90,CL,1553306400,100,-41.87,-73.83,53.6,10.29
Richmond,90,CA,1553308532,62,49.16,-123.14,57.2,18.34
Zarya,92,RU,1553308216,92,45.67,39.64,42.01,12.24
Khasan,8,RU,1553308782,74,42.43,130.64,36.77,7.87
Ler,40,NO,1553308778,93,63.2,10.3,42.8,14.99
Purpe,48,RU,1553308692,89,64.48,76.69,23.0,4.85
Yangjiang,80,CN,1553308784,100,21.85,111.96,69.08,20.96
Ormara,68,PK,1553308784,94,25.21,64.64,71.6,8.77
Devils Lake,1,US,1553307300,92,48.11,-98.87,24.8,8.05
Proletariy,0,RU,1553308785,82,58.43,31.7,28.85,7.2
Aklavik,75,CA,1553306400,66,68.22,-135.01,15.8,11.41
Puerto Escondido,40,MX,1553305260,74,15.86,-97.07,78.8,5.82
Cienfuegos,0,CU,1553306280,68,22.15,-80.44,66.2,6.93
Port Blair,20,IN,1553306400,78,11.67,92.75,82.4,6.93
Pucallpa,75,PE,1553306400,88,-8.38,-74.54,77.0,4.7
Poum,0,MK,1553308787,84,41.28,20.71,27.86,1.72
Katherine,36,AU,1553306400,70,-14.47,132.26,86.0,10.29
Vernon,1,CA,1553306400,38,50.27,-119.27,59.0,3.36
Kuybysheve,12,UA,1553308789,67,47.36,36.65,30.29,11.9
Townsville,40,AU,1553308298,70,-19.26,146.82,86.0,14.99
Richards Bay,80,ZA,1553308789,99,-28.77,32.06,67.1,2.17
Zhireken,20,RU,1553308790,43,52.82,117.29,24.35,4.63
Roald,90,NO,1553308504,86,62.58,6.12,42.8,41.38
Akureyri,90,IS,1553306400,79,65.68,-18.09,26.6,2.24
Zhigansk,68,RU,1553308626,72,66.77,123.37,12.2,10.67
Meulaboh,20,ID,1553308791,100,4.14,96.13,82.67,4.07
Markova,0,RU,1553306400,73,52.21,104.21,23.0,2.24
Ipixuna,92,BR,1553308792,95,-1.76,-48.8,76.37,3.06
Anaconda,90,US,1553308248,52,46.13,-112.94,42.8,9.17
Karaton,20,ID,1553308390,66,-6.34,106.1,86.0,14.99
Georgiyevka,92,RU,1553308792,94,52.25,40.45,31.1,11.45
Wukari,0,NG,1553308793,78,7.87,9.78,79.34,11.79
Choya,0,RU,1553308793,65,52.01,86.55,36.77,2.39
Vila,0,IT,1553308788,64,45.18,8.4,51.01,8.05
La Ronge,5,CA,1553306400,75,55.1,-105.3,41.0,2.84
Mayor Pablo Lagerenza,88,PY,1553308794,73,-19.93,-60.77,75.02,8.32
Sisimiut,0,GL,1553308726,61,66.94,-53.67,-34.88,2.73
Springbok,0,ZA,1553308795,42,-29.67,17.88,55.31,2.39
Mountain Home,90,US,1553308619,76,43.13,-115.69,55.4,6.93
Venado Tuerto,0,AR,1553308743,53,-33.75,-61.97,59.0,5.01
Winslow,76,GB,1553308786,93,51.94,-0.88,48.99,3.36
Filadelfia,100,PY,1553308796,76,-22.35,-60.04,75.2,6.31
Tabou,24,CI,1553308640,100,4.42,-7.36,82.31,10.45
Suntar,76,RU,1553308797,81,62.16,117.65,25.07,3.74
Marsh Harbour,0,BS,1553308521,100,26.54,-77.06,71.24,9.22
Beauvais,90,FR,1553308754,100,49.44,2.09,46.0,3.36
La Asuncion,88,EC,1553308799,95,-1.64,-78.74,46.58,2.17
Qaqortoq,56,GL,1553305800,79,60.72,-46.03,28.4,3.36
Mufumbwe,0,ZM,1553308799,54,-13.68,24.8,66.83,10.89
Salym,80,RU,1553308787,94,60.06,71.48,30.92,4.74
Ilhabela,48,BR,1553308621,100,-23.78,-45.36,77.27,17.6
Tautira,20,PF,1553308385,70,-17.73,-149.15,87.8,11.41
Tuy Hoa,0,VN,1553308801,81,13.08,109.3,82.4,1.83
Okhotsk,56,RU,1553308801,76,59.36,143.24,28.4,3.4
Saint-Louis,0,CH,1553308796,77,47.59,7.56,44.01,3.36
Xining,0,CN,1553308802,57,36.62,101.77,32.63,1.16
Acapulco,5,MX,1553305800,78,16.86,-99.88,80.6,8.05
Taseyevo,56,RU,1553308802,85,57.22,94.9,30.47,3.74
Tsumeb,20,NA,1553308803,51,-19.25,17.72,67.1,4.97
Esperance,40,TT,1553308507,88,10.24,-61.45,79.0,5.82
Gunjur,0,GM,1553306400,88,13.18,-16.76,68.0,10.29
Teguldet,92,RU,1553308803,84,57.31,88.17,29.39,2.62
Singaraja,92,ID,1553308804,94,-8.11,115.08,78.71,0.04
Nemuro,40,JP,1553306400,46,43.32,145.57,28.4,11.41
Fortuna,75,ES,1553308556,66,38.18,-1.13,57.2,2.24
Whitehorse,40,CA,1553306400,35,60.72,-135.06,55.4,8.05
Teya,5,MX,1553308318,56,21.05,-89.07,73.4,6.93
Boshnyakovo,68,RU,1553308805,86,49.65,142.17,14.27,10.67
Kalininskaya,90,RU,1553308236,86,45.49,38.66,41.0,11.18
Mogok,0,MM,1553308806,58,22.92,96.51,77.18,2.39
Petropavlovsk-Kamchatskiy,40,RU,1553306400,59,53.05,158.65,33.8,13.42
Kahului,40,US,1553308426,51,20.89,-156.47,82.4,23.04
Alofi,100,NU,1553306400,62,-19.06,-169.92,84.2,12.75
Waddan,24,LY,1553308807,95,29.16,16.14,49.64,8.21
Lompoc,40,US,1553308364,87,34.64,-120.46,57.99,10.29
Ninghai,40,CN,1553308460,58,29.29,121.42,57.0,6.71
Saint-Esteve,0,FR,1553308805,57,42.71,2.84,51.01,6.93
Toppenish,90,US,1553308704,54,46.38,-120.31,57.2,11.41
Oranjemund,0,ZA,1553308808,93,-28.55,16.43,61.7,3.06
Lavrentiya,92,RU,1553308779,100,65.58,-170.99,15.8,19.06
Garowe,92,SO,1553308613,92,8.41,48.48,68.0,6.76
Sur,0,OM,1553308809,100,22.57,59.53,70.25,10.67
Takoradi,36,GH,1553308809,100,4.89,-1.75,81.05,6.31
Codrington,0,AU,1553308779,55,-28.95,153.24,89.6,11.41
Gatton,0,AU,1553308808,52,-27.56,152.28,93.0,8.05
Pacific Grove,90,US,1553308805,71,36.62,-121.92,57.99,6.93
Teeli,0,RU,1553308810,64,51.01,90.2,26.96,4.18
Bontang,20,ID,1553308810,91,0.12,117.47,84.2,6.76
Guanica,24,PR,1553308542,84,17.97,-66.91,79.0,5.01
Hirado,75,JP,1553308388,50,33.32,129.49,55.4,14.99
Clyde River,90,CA,1553306580,75,70.47,-68.59,-18.41,5.82
Saquena,76,PE,1553308812,94,-4.67,-73.52,75.83,2.73
Krusevac,0,HR,1553306400,49,43.38,17.11,55.4,3.36
Blagoyevo,68,RU,1553308641,91,63.37,47.92,27.59,2.51
Hervey Bay,0,AU,1553308812,45,-25.3,152.85,90.0,9.17
Flin Flon,0,CA,1553308599,77,54.77,-101.88,35.6,7.43
Sambava,68,MG,1553308810,100,-14.27,50.17,81.23,12.8
Homer,40,US,1553308574,65,59.64,-151.54,46.4,12.75
Khani,75,GE,1553306400,100,41.96,42.96,39.2,3.36
Orbetello,0,IT,1553308386,70,42.44,11.21,48.99,5.82
Matara,20,PE,1553308814,97,-13.74,-72.9,41.45,1.83
Jasper,0,US,1553308640,93,33.83,-87.28,57.2,4.29
Rudnaya Pristan,76,RU,1553308815,45,44.36,135.82,29.66,4.41
Camden,90,US,1553308814,56,39.94,-75.12,42.01,18.34
Ongandjera,80,NA,1553308816,72,-17.88,15.07,68.63,3.18
Porbandar,0,IN,1553306400,69,21.64,69.61,75.2,13.87
Leh,36,IN,1553308817,78,34.16,77.58,-6.53,1.95
Morogoro,20,TZ,1553302800,88,-6.82,37.67,71.6,3.18
Graaff-Reinet,88,ZA,1553308817,93,-32.25,24.53,54.41,1.16
Nabire,32,ID,1553308818,80,-3.36,135.5,79.52,2.73
Kushima,75,JP,1553308387,41,31.5,131.29,57.2,6.93
Namibe,0,AO,1553308819,100,-15.19,12.15,77.72,4.41
Tarabha,0,IN,1553308820,54,20.73,83.65,80.33,3.96
Fundao,75,BR,1553308485,83,-19.93,-40.4,73.4,14.99
Dzhebariki-Khaya,0,RU,1553308801,51,62.22,135.8,4.55,3.4
Gusau,20,NG,1553308822,65,12.17,6.66,68.09,2.73
Auki,20,NG,1553308823,65,12.18,6.51,68.09,2.73
Najran,0,SA,1553306400,28,17.54,44.22,69.8,2.24
Morondava,0,MG,1553308824,100,-20.3,44.28,75.47,3.62
Ha Giang,92,VN,1553308824,99,22.83,104.99,64.85,2.28
Asyut,0,EG,1553306400,51,27.18,31.19,62.6,3.62
Teguise,0,ES,1553306400,82,29.06,-13.56,60.8,10.29
Seminole,1,US,1553308336,72,32.72,-102.64,62.01,8.05
Chake Chake,44,TZ,1553308826,100,-5.25,39.77,80.96,7.76
Rock Sound,0,BS,1553308826,100,24.9,-76.2,73.94,9.78
Tianpeng,92,CN,1553308827,100,28.88,112.34,50.63,8.77
Myitkyina,0,MM,1553308827,83,25.38,97.4,70.97,2.95
Saint-Augustin,0,FR,1553308390,81,44.83,-0.61,45.0,2.62
Buala,36,SB,1553308828,91,-8.15,159.59,84.29,3.85
Neuquen,0,AR,1553306400,77,-38.95,-68.06,60.8,6.98
Kibuye,8,RW,1553308829,98,-2.07,29.35,56.03,3.74
Kangaatsiaq,12,GL,1553308829,100,68.31,-53.46,-8.15,5.97
Abu Kamal,92,SY,1553308830,92,34.45,40.92,50.27,7.65
Keti Bandar,0,PK,1553308830,93,24.14,67.45,75.65,10.33
Mahdasht,40,IR,1553308385,36,35.73,50.81,48.2,1.61
Williams Lake,90,CA,1553306400,26,52.13,-122.14,55.4,6.93
Lubbock,75,US,1553308366,67,33.58,-101.86,60.8,19.46
Soyo,92,AO,1553308650,97,-6.13,12.37,80.15,3.85
Cidreira,56,BR,1553308832,99,-30.17,-50.22,63.5,10.67
Latisana,0,IT,1553308829,88,45.78,13.0,50.0,5.82
Goderich,0,CA,1553308770,74,43.74,-81.71,30.0,15.99
Fare,32,PF,1553308834,96,-16.7,-151.02,85.37,7.87
Luba,0,PH,1553308834,49,17.32,120.7,85.28,3.74
Biograd na Moru,0,HR,1553308554,80,43.94,15.45,54.0,2.24
Mouzouras,75,GR,1553308547,87,35.53,24.15,57.99,6.2
La Libertad,0,PE,1553306400,71,-16.38,-71.56,53.6,5.82
Sebinkarahisar,80,TR,1553308589,91,40.29,38.42,17.06,2.39
Ponnani,20,IN,1553306400,83,10.77,75.93,78.8,4.7
Padang,20,ID,1553306400,74,-0.92,100.36,84.2,1.12
Kitimat,75,CA,1553308279,53,54.02,-128.69,50.0,14.99
Riyadh,0,SA,1553306400,55,24.63,46.72,62.6,3.36
La Romana,20,DO,1553306400,94,18.43,-68.97,75.2,4.18
Belmonte,0,PT,1553308218,57,40.36,-7.35,48.0,3.0
Zhuanghe,0,CN,1553308570,97,39.7,122.97,44.01,1.01
Kamaishi,75,JP,1553306400,64,39.28,141.86,39.2,5.82
Illela,8,NG,1553308840,28,12.39,4.75,74.03,8.66
Aurdal,0,NO,1553308732,74,60.92,9.42,33.01,24.0
Jacareacanga,80,BR,1553308812,92,-6.22,-57.76,76.55,2.73
Tortoli,5,IT,1553306100,50,39.93,9.66,57.2,11.41
Cayenne,75,GF,1553306400,78,4.94,-52.33,80.6,8.05
Calama,0,CL,1553306400,22,-22.46,-68.93,55.4,3.36
Amazar,20,RU,1553308842,38,53.86,120.88,25.25,3.96
Roebourne,92,AU,1553308843,63,-20.77,117.15,86.72,31.59
Ichalkaranji,0,IN,1553308843,44,16.7,74.46,77.0,6.2
Marzuq,0,YE,1553308843,72,14.4,46.47,45.05,2.39
Salisbury,92,GB,1553308818,93,51.07,-1.8,48.99,4.7
Orotukan,12,RU,1553308844,84,62.26,151.67,9.5,3.74
Beloha,88,MG,1553308844,98,-25.17,45.06,70.52,13.24
Martaban,0,MM,1553308845,57,16.53,97.61,88.88,4.41
Corner Brook,90,CA,1553308362,74,48.95,-57.95,37.4,12.75
Ende,0,ID,1553308845,96,-8.84,121.65,85.46,9.44
Pangnirtung,32,CA,1553308846,54,66.15,-65.72,-19.4,5.75
Tuzha,92,CN,1553308847,97,28.58,109.69,44.33,6.64
Port-Cartier,90,CA,1553308341,91,50.03,-66.88,34.0,9.17
Coxim,8,BR,1553308848,65,-18.5,-54.75,77.54,8.99
Calvinia,76,ZA,1553308849,63,-31.47,19.78,51.62,3.74
Biak,44,ID,1553308849,81,-0.91,122.88,85.55,2.62
Labuhan,56,ID,1553308849,77,-2.54,115.51,84.83,2.84
Sao Jose da Coroa Grande,8,BR,1553308850,94,-8.9,-35.15,77.9,7.54
Aras,0,YE,1553308850,79,14.28,44.38,40.91,0.16
Talnakh,0,RU,1553308683,66,69.49,88.39,-0.86,3.74
Coos Bay,90,US,1553308825,87,43.37,-124.22,52.0,4.7
Sonoita,1,US,1553308849,27,31.68,-110.66,63.0,6.93
Iralaya,0,HN,1553308852,79,15.0,-83.23,77.36,10.45
Destin,1,US,1553308837,72,30.39,-86.5,60.8,3.36
Sevenoaks,75,GB,1553308847,93,51.27,0.19,48.99,2.24
Ceske Velenice,0,CZ,1553308846,89,48.77,14.96,45.0,2.51
Huarmey,8,PE,1553308854,79,-10.07,-78.15,65.57,3.18
Lagoa,0,PT,1553308628,82,37.14,-8.45,57.99,10.29
Constantine,75,DZ,1553306400,100,36.36,6.61,44.6,9.17
Ostersund,32,SE,1553308309,73,63.18,14.64,39.99,5.82
Margate,75,AU,1553308756,46,-43.03,147.26,73.99,11.41
Shatalovo,92,RU,1553308856,93,53.28,37.58,30.47,16.37
Marfino,75,RU,1553308849,95,56.07,37.56,35.01,15.66
Ostrovnoy,64,RU,1553308764,83,68.05,39.51,20.66,19.06
Ukmerge,8,LT,1553308660,86,55.25,24.75,28.99,3.18
San Felipe,0,CL,1553308790,30,-32.75,-70.73,66.99,3.18
Havre-Saint-Pierre,75,CA,1553306400,94,50.23,-63.6,35.6,20.8
Atasu,88,KZ,1553308859,84,48.68,71.64,37.58,4.97
Sandeid,92,NO,1553308810,65,59.54,5.86,44.6,27.51
Kjollefjord,88,NO,1553308860,87,70.95,27.35,31.91,20.96
Maxixe,8,MZ,1553308861,100,-23.86,35.35,74.57,8.77
Tutoia,88,BR,1553308713,97,-2.76,-42.27,76.1,3.4
Araquari,75,BR,1553308203,100,-26.37,-48.72,68.0,3.36
Strezhevoy,90,RU,1553306400,86,60.73,77.6,28.4,2.24
Ardesen,90,TR,1553306400,93,41.19,40.99,42.8,8.05
Snasa,92,NO,1553308863,96,64.25,12.38,35.6,4.97
Carutapera,92,BR,1553308863,91,-1.2,-46.02,78.71,6.08
Naze,40,NG,1553306400,100,5.43,7.07,75.2,6.53
Lasa,20,CY,1553308319,71,34.92,32.53,51.8,10.29
Huambo,68,AO,1553308865,95,-12.78,15.73,56.93,1.16
Bom Jesus,88,BR,1553308865,96,-9.08,-44.36,70.52,3.62
Warsaw,0,PL,1553308584,69,52.23,21.01,37.99,3.36
Paamiut,8,GL,1553308866,100,61.99,-49.67,19.85,23.87
Peleduy,88,RU,1553308867,81,59.63,112.75,29.12,7.09
Conakry,56,GN,1553308867,100,9.52,-13.7,79.97,12.68
Basco,1,US,1553308833,49,40.33,-91.2,48.2,3.36
Los Llanos de Aridane,90,ES,1553308502,63,28.66,-17.92,62.6,17.22
Sheopur,0,IN,1553308869,38,25.67,76.7,70.88,4.18
Manaus,20,BR,1553306400,94,-3.13,-59.98,78.8,2.24
Nome,1,US,1553308502,55,30.04,-94.42,66.99,3.36
Vyartsilya,64,RU,1553308871,67,62.18,30.69,19.13,9.1
Sumter,1,US,1553308811,33,33.92,-80.34,62.6,5.82
Severo-Yeniseyskiy,76,RU,1553308602,70,60.37,93.04,26.78,4.18
Lichinga,92,MZ,1553308872,98,-13.3,35.25,67.82,4.18
Svetlaya,32,RU,1553308872,100,46.54,138.33,24.8,5.41
Lokosovo,80,RU,1553308873,87,61.13,74.84,30.47,3.29
Hua Hin,0,TH,1553308641,96,12.57,99.96,85.82,4.41
Sosnovo-Ozerskoye,44,RU,1553308874,59,52.53,111.54,26.15,13.24
Christchurch,0,NZ,1553308803,68,-43.53,172.64,69.01,11.41
Olhao,0,PT,1553308654,82,37.03,-7.84,57.0,10.29
Nago,0,IT,1553308862,70,45.88,10.89,50.0,3.36
Merrill,90,US,1553308821,75,42.03,-121.6,42.8,9.17
Turukhansk,76,RU,1553308876,84,65.8,87.96,23.0,4.18
Broome,24,GB,1553308813,93,52.47,1.45,48.0,5.82
Tete,40,MZ,1553306400,88,-16.16,33.59,75.2,3.36
Dayong,8,PH,1553308878,96,11.74,122.04,80.96,14.25
Bjornevatn,92,NO,1553305800,74,69.67,29.98,30.2,33.33
Bahia Blanca,8,AR,1553308879,84,-38.72,-62.27,63.05,14.03
Muzhi,76,RU,1553308879,80,65.4,64.7,19.58,2.73
